{
  "store_locations": [
    {"id": 1, "name": "Cascade Vapor Shanghai Flagship", "country": "China", "state": "Shanghai", "city": "Shanghai", "address": "18F Cascade Tower, 555 Yanping Rd", "latitude": 31.2323, "longitude": 121.4442, "phone": "+86 21-5555-1234", "store_type": "flagship", "is_active": true},
    {"id": 2, "name": "Cascade Vapor Shenzhen Experience Center", "country": "China", "state": "Guangdong", "city": "Shenzhen", "address": "Unit 302, MixC World, Nanshan District", "latitude": 22.5312, "longitude": 113.9417, "phone": "+86 755-8888-5678", "store_type": "authorized_dealer", "is_active": true},
    {"id": 3, "name": "Cascade Vapor Beijing Boutique", "country": "China", "state": "Beijing", "city": "Beijing", "address": "No. 88 Sanlitun Rd, Chaoyang", "latitude": 39.9339, "longitude": 116.4503, "phone": "+86 10-6666-9080", "store_type": "authorized_dealer", "is_active": true},
    {"id": 4, "name": "Cascade Vapor Hong Kong", "country": "Hong Kong", "state": "", "city": "Hong Kong", "address": "Shop A, 2F, K11 Musea, Tsim Sha Tsui", "latitude": 22.2949, "longitude": 114.1735, "phone": "+852 3100 9988", "store_type": "flagship", "is_active": true},
    {"id": 5, "name": "Cascade Vapor Tokyo", "country": "Japan", "state": "Tokyo", "city": "Tokyo", "address": "1-9-2 Jingumae, Shibuya-ku", "latitude": 35.6692, "longitude": 139.7040, "phone": "+81 3-6400-8800", "store_type": "authorized_dealer", "is_active": true},
    {"id": 6, "name": "Cascade Vapor Seoul", "country": "South Korea", "state": "Seoul", "city": "Seoul", "address": "37 Apgujeong-ro, Gangnam-gu", "latitude": 37.5240, "longitude": 127.0286, "phone": "+82 2-501-7771", "store_type": "authorized_dealer", "is_active": true},
    {"id": 7, "name": "Cascade Vapor Singapore", "country": "Singapore", "state": "", "city": "Singapore", "address": "ION Orchard #B3-14, 2 Orchard Turn", "latitude": 1.3048, "longitude": 103.8318, "phone": "+65 6509 8899", "store_type": "authorized_dealer", "is_active": true},
    {"id": 8, "name": "Cascade Vapor Kuala Lumpur", "country": "Malaysia", "state": "Wilayah Persekutuan", "city": "Kuala Lumpur", "address": "Lot 3-12, Pavilion Kuala Lumpur", "latitude": 3.1480, "longitude": 101.7136, "phone": "+60 3-2110 5588", "store_type": "authorized_dealer", "is_active": true},
    {"id": 9, "name": "Cascade Vapor Sydney", "country": "Australia", "state": "NSW", "city": "Sydney", "address": "Level 2, Westfield Sydney, Pitt Street", "latitude": -33.8705, "longitude": 151.2068, "phone": "+61 2-9000 1122", "store_type": "authorized_dealer", "is_active": true},
    {"id": 10, "name": "Cascade Vapor Los Angeles", "country": "United States", "state": "California", "city": "Los Angeles", "address": "742 S Broadway", "latitude": 34.0423, "longitude": -118.2551, "phone": "+1 213-555-1200", "store_type": "authorized_dealer", "is_active": true},
    {"id": 11, "name": "Cascade Vapor New York", "country": "United States", "state": "New York", "city": "New York", "address": "210 Lafayette St", "latitude": 40.7224, "longitude": -73.9967, "phone": "+1 212-555-3470", "store_type": "flagship", "is_active": true},
    {"id": 12, "name": "Cascade Vapor Vancouver", "country": "Canada", "state": "British Columbia", "city": "Vancouver", "address": "CF Pacific Centre, 701 W Georgia St", "latitude": 49.2834, "longitude": -123.1181, "phone": "+1 604-555-6600", "store_type": "authorized_dealer", "is_active": true},
    {"id": 13, "name": "Cascade Vapor London", "country": "United Kingdom", "state": "England", "city": "London", "address": "Unit 12, 214 Oxford Street", "latitude": 51.5151, "longitude": -0.1424, "phone": "+44 20 7123 4567", "store_type": "authorized_dealer", "is_active": true},
    {"id": 14, "name": "Cascade Vapor Paris", "country": "France", "state": "ÃŽle-de-France", "city": "Paris", "address": "19 Rue Sainte-Croix de la Bretonnerie", "latitude": 48.8571, "longitude": 2.3553, "phone": "+33 1 44 55 77 88", "store_type": "authorized_dealer", "is_active": true},
    {"id": 15, "name": "Cascade Vapor Berlin", "country": "Germany", "state": "Berlin", "city": "Berlin", "address": "Mall of Berlin, Leipziger Platz 12", "latitude": 52.5096, "longitude": 13.3810, "phone": "+49 30 5679 2211", "store_type": "authorized_dealer", "is_active": true}
  ]
}
